to_timestamp           | gpst |       time | latitude | longitude | altitude | heading |  pitch |   roll |   mrms |   brms | flag
----------------------+++----+++----------+++--------+++---------+++--------+++-------+++------+++------+++------+++------+++----
2014-12-24 19:42:44-05 |    4 | 1419468164 | -77.9026 |   24.8928 |  35548.3 | 107.936 |   0.57 |  -0.57 | 0.0024 | 0.0251 |    0
2014-12-24 19:42:43-05 |    4 | 1419468163 | -77.9026 |    24.893 |  35548.4 | 107.756 |   0.57 |  -0.59 | 0.0025 | 0.0265 |    0
2014-12-24 19:42:42-05 |    4 | 1419468162 | -77.9026 |   24.8933 |  35548.4 | 107.593 |   0.55 |   -0.6 | 0.0025 |  0.027 |    0
2014-12-24 19:42:41-05 |    4 | 1419468161 | -77.9027 |   24.8936 |  35548.5 | 107.395 |   0.42 |  -0.54 | 0.0025 | 0.0274 |    0
2014-12-24 19:42:40-05 |    4 | 1419468160 | -77.9027 |   24.8938 |  35548.6 | 107.248 |   0.51 |  -0.55 | 0.0025 | 0.0282 |    0
2014-12-24 19:42:11-05 |    4 | 1419468131 | -77.9038 |   24.9015 |    35549 | 103.172 |   0.09 |  -0.06 | 0.0019 | 0.0217 |    0
2014-12-24 19:42:10-05 |    4 | 1419468130 | -77.9038 |   24.9018 |    35549 | 103.061 |    0.1 |   0.04 | 0.0018 | 0.0195 |    0
2014-12-24 19:42:09-05 |    4 | 1419468129 | -77.9038 |    24.902 |  35548.9 | 102.952 |   0.02 |   0.02 | 0.0017 |  0.019 |    0
2014-12-24 19:42:08-05 |    4 | 1419468128 | -77.9039 |   24.9023 |  35548.9 | 102.854 |    0.1 |   0.11 | 0.0018 | 0.0194 |    0
2014-12-24 19:42:07-05 |    4 | 1419468127 | -77.9039 |   24.9026 |  35548.8 | 102.761 |   0.12 |   0.09 | 0.0018 | 0.0188 |    0
2014-12-24 19:42:06-05 |    4 | 1419468126 | -77.9039 |   24.9028 |  35548.8 | 102.672 |   0.14 |   0.16 | 0.0018 | 0.0193 |    0
2014-12-24 19:42:05-05 |    4 | 1419468125 |  -77.904 |   24.9031 |  35548.7 | 102.572 |   0.18 |   0.14 | 0.0018 | 0.0192 |    0
2014-12-24 19:42:04-05 |    4 | 1419468124 |  -77.904 |   24.9034 |  35548.6 | 102.481 |    0.2 |   0.18 | 0.0019 | 0.0196 |    0
2014-12-24 19:42:03-05 |    4 | 1419468123 |  -77.904 |   24.9036 |  35548.6 | 102.398 |   0.27 |   0.21 | 0.0018 | 0.0186 |    0
2014-12-24 19:42:02-05 |    4 | 1419468122 | -77.9041 |   24.9039 |  35548.5 | 102.298 |   0.28 |   0.27 | 0.0019 | 0.0196 |    0
2014-12-24 19:42:01-05 |    4 | 1419468121 | -77.9041 |   24.9042 |  35548.4 | 102.201 |   0.25 |   0.31 | 0.0019 | 0.0182 |    0
2014-12-24 19:42:00-05 |    4 | 1419468120 | -77.9042 |   24.9044 |  35548.4 | 102.112 |   0.21 |    0.3 | 0.0018 | 0.0178 |    0
2014-12-24 19:41:59-05 |    4 | 1419468119 | -77.9042 |   24.9047 |  35548.3 | 102.018 |   0.18 |   0.33 | 0.0018 | 0.0182 |    0
2014-12-24 19:41:58-05 |    4 | 1419468118 | -77.9042 |   24.9049 |  35548.2 | 101.931 |   0.24 |   0.36 |  0.002 | 0.0198 |    0
2014-12-24 19:41:57-05 |    4 | 1419468117 | -77.9043 |   24.9052 |  35548.1 | 101.843 |   0.26 |   0.34 | 0.0019 | 0.0198 |    0
2014-12-24 19:41:39-05 |    4 | 1419468099 | -77.9049 |     24.91 |  35545.9 | 100.024 |   -0.4 |   0.58 | 0.0017 |  0.022 |    0
2014-12-24 19:41:38-05 |    4 | 1419468098 | -77.9049 |   24.9103 |  35545.8 | 99.9087 |  -0.45 |   0.64 | 0.0017 | 0.0213 |    0
2014-12-24 19:41:37-05 |    4 | 1419468097 |  -77.905 |   24.9105 |  35545.6 | 99.8065 |  -0.34 |   0.61 | 0.0017 | 0.0212 |    0
2014-12-24 19:41:36-05 |    4 | 1419468096 |  -77.905 |   24.9108 |  35545.4 | 99.6935 |  -0.33 |   0.54 | 0.0017 |  0.022 |    0
2014-12-24 19:41:35-05 |    4 | 1419468095 |  -77.905 |   24.9111 |  35545.3 | 99.5769 |   -0.4 |   0.57 | 0.0017 | 0.0215 |    0
2014-12-24 19:41:34-05 |    4 | 1419468094 | -77.9051 |   24.9113 |  35545.1 | 99.4727 |  -0.36 |   0.52 | 0.0016 | 0.0212 |    0
2014-12-24 19:41:33-05 |    4 | 1419468093 | -77.9051 |   24.9116 |  35544.9 | 99.3553 |  -0.39 |   0.55 | 0.0017 | 0.0217 |    0
2014-12-24 19:41:32-05 |    4 | 1419468092 | -77.9051 |   24.9119 |  35544.8 | 99.2214 |  -0.46 |   0.56 | 0.0016 |  0.021 |    0
2014-12-24 19:41:31-05 |    4 | 1419468091 | -77.9052 |   24.9121 |  35544.6 | 99.1033 |  -0.45 |   0.51 | 0.0017 | 0.0212 |    0
2014-12-24 19:41:30-05 |    4 | 1419468090 | -77.9052 |   24.9124 |  35544.4 | 98.9737 |  -0.46 |    0.5 | 0.0017 | 0.0208 |    0
2014-12-24 19:41:01-05 |    4 | 1419468061 | -77.9062 |   24.9201 |  35538.7 | 94.0409 |  -0.12 |   0.86 | 0.0025 | 0.0262 |    0
2014-12-24 19:41:00-05 |    4 | 1419468060 | -77.9063 |   24.9203 |  35538.4 | 93.8661 |  -0.03 |   0.79 | 0.0025 | 0.0259 |    0
2014-12-24 19:40:59-05 |    4 | 1419468059 | -77.9063 |   24.9206 |  35538.2 | 93.6707 |   0.09 |   0.91 | 0.0025 |  0.025 |    0
2014-12-24 19:40:58-05 |    4 | 1419468058 | -77.9063 |   24.9209 |    35538 | 93.4887 |    0.1 |   0.87 | 0.0024 | 0.0244 |    0
2014-12-24 19:40:57-05 |    4 | 1419468057 | -77.9064 |   24.9211 |  35537.8 | 93.3075 |   0.12 |   0.83 | 0.0023 | 0.0238 |    0
2014-12-24 19:40:56-05 |    4 | 1419468056 | -77.9064 |   24.9214 |  35537.6 | 93.1081 |   0.16 |   0.86 | 0.0023 | 0.0239 |    0
2014-12-24 19:40:55-05 |    4 | 1419468055 | -77.9064 |   24.9216 |  35537.4 | 92.9061 |   0.17 |    0.8 | 0.0022 | 0.0218 |    0
2014-12-24 19:40:54-05 |    4 | 1419468054 | -77.9065 |   24.9219 |  35537.1 | 92.7094 |   0.26 |   0.77 | 0.0022 | 0.0213 |    0
2014-12-24 19:40:53-05 |    4 | 1419468053 | -77.9065 |   24.9222 |  35536.9 | 92.5061 |   0.21 |   0.73 | 0.0021 | 0.0217 |    0
2014-12-24 19:40:52-05 |    4 | 1419468052 | -77.9065 |   24.9224 |  35536.7 | 92.2983 |   0.21 |   0.71 | 0.0021 | 0.0222 |    0
2014-12-24 19:40:17-05 |    4 | 1419468017 | -77.9078 |   24.9316 |  35530.3 | 86.3989 | -1e-37 | -1e-37 |  0.002 | 9.9999 |    1
2014-12-24 19:40:16-05 |    4 | 1419468016 | -77.9078 |   24.9319 |  35530.2 | 86.2978 |   0.16 |   0.89 | 0.0018 | 0.0136 |    0
2014-12-24 19:40:15-05 |    4 | 1419468015 | -77.9079 |   24.9321 |    35530 | 86.1896 |   0.16 |   0.86 |  0.002 | 0.0151 |    0
2014-12-24 19:40:14-05 |    4 | 1419468014 | -77.9079 |   24.9324 |  35529.9 | 86.0349 |  -0.08 |   0.89 | 0.0018 | 0.0137 |    0
2014-12-24 19:40:13-05 |    4 | 1419468013 | -77.9079 |   24.9326 |  35529.8 | 85.8858 |  -0.55 |   0.62 |  0.002 | 0.0146 |    0
2014-12-24 19:40:12-05 |    4 | 1419468012 |  -77.908 |   24.9329 |  35529.6 | 85.7317 |  -0.43 |   0.23 | 0.0019 | 0.0135 |    0
2014-12-24 19:40:11-05 |    4 | 1419468011 |  -77.908 |   24.9332 |  35529.5 | 85.6631 |  -0.62 |   0.53 | 0.0018 | 0.0135 |    0
2014-12-24 19:40:10-05 |    4 | 1419468010 |  -77.908 |   24.9334 |  35529.4 | 85.5755 |  -0.61 |    0.5 | 0.0017 | 0.0125 |    0
2014-12-24 19:40:09-05 |    4 | 1419468009 | -77.9081 |   24.9337 |  35529.3 | 85.4458 |  -0.59 |    0.4 | 0.0018 | 0.0116 |    0
2014-12-24 19:40:08-05 |    4 | 1419468008 | -77.9081 |   24.9339 |  35529.2 | 85.3547 |  -0.59 |   0.43 | 0.0018 | 0.0104 |    0
2014-12-24 19:39:40-05 |    4 | 1419467980 | -77.9091 |   24.9412 |  35527.5 | 82.8308 |   -0.5 |   0.14 | 0.0016 | 0.0158 |    0
2014-12-24 19:39:39-05 |    4 | 1419467979 | -77.9091 |   24.9415 |  35527.5 |  82.728 |  -0.58 |   0.16 | 0.0014 | 0.0155 |    0
2014-12-24 19:39:38-05 |    4 | 1419467978 | -77.9091 |   24.9417 |  35527.5 | 82.6114 |  -0.61 |   0.13 | 0.0016 | 0.0158 |    0
2014-12-24 19:39:37-05 |    4 | 1419467977 | -77.9092 |    24.942 |  35527.5 | 82.5091 |   -0.6 |   0.12 | 0.0014 | 0.0143 |    0
2014-12-24 19:39:36-05 |    4 | 1419467976 | -77.9092 |   24.9423 |  35527.5 | 82.4032 |  -0.59 |   0.12 | 0.0016 | 0.0165 |    0
2014-12-24 19:39:35-05 |    4 | 1419467975 | -77.9092 |   24.9425 |  35527.5 | 82.2965 |  -0.61 |   0.13 | 0.0015 | 0.0148 |    0
2014-12-24 19:39:34-05 |    4 | 1419467974 | -77.9093 |   24.9428 |  35527.6 | 82.1785 |  -0.69 |   0.19 | 0.0015 | 0.0167 |    0
2014-12-24 19:39:33-05 |    4 | 1419467973 | -77.9093 |    24.943 |  35527.6 | 82.0583 |  -0.65 |   0.24 | 0.0016 |  0.017 |    0
2014-12-24 19:39:32-05 |    4 | 1419467972 | -77.9093 |   24.9433 |  35527.6 | 81.9972 |  -0.55 |   0.17 | 0.0017 | 0.0209 |    0
2014-12-24 19:39:31-05 |    4 | 1419467971 | -77.9094 |   24.9436 |  35527.6 | 81.8317 |  -0.65 |   0.17 | 0.0016 | 0.0191 |    0
2014-12-24 19:35:25-05 |    4 | 1419467725 | -77.9174 |   25.0086 |  35553.8 | 58.7396 |   0.22 |   0.22 | 0.0019 | 0.0174 |    0
2014-12-24 19:35:24-05 |    4 | 1419467724 | -77.9174 |   25.0088 |  35553.7 | 58.6355 |    0.2 |   0.23 | 0.0019 | 0.0182 |    0
2014-12-24 19:35:23-05 |    4 | 1419467723 | -77.9175 |   25.0091 |  35553.6 | 58.5405 |    0.2 |   0.19 | 0.0019 | 0.0155 |    0
2014-12-24 19:35:22-05 |    4 | 1419467722 | -77.9175 |   25.0093 |  35553.4 | 58.4179 |   0.19 |   0.24 | 0.0019 |  0.017 |    0
2014-12-24 19:35:21-05 |    4 | 1419467721 | -77.9175 |   25.0096 |  35553.3 |   58.31 |    0.2 |   0.22 |  0.002 | 0.0166 |    0
2014-12-24 19:35:20-05 |    4 | 1419467720 | -77.9176 |   25.0098 |  35553.2 | 58.1971 |   0.21 |    0.2 | 0.0021 | 0.0169 |    0
2014-12-24 19:35:19-05 |    4 | 1419467719 | -77.9176 |   25.0101 |    35553 | 58.0835 |   0.21 |   0.25 | 0.0018 | 0.0145 |    0
2014-12-24 19:35:18-05 |    4 | 1419467718 | -77.9176 |   25.0103 |  35552.9 | 57.9649 |   0.19 |   0.27 |  0.002 | 0.0161 |    0
2014-12-24 19:35:17-05 |    4 | 1419467717 | -77.9177 |   25.0106 |  35552.8 | 57.8391 |   0.18 |   0.29 |  0.002 | 0.0163 |    0
2014-12-24 19:35:16-05 |    4 | 1419467716 | -77.9177 |   25.0109 |  35552.6 |  57.728 |   0.16 |   0.25 |  0.002 | 0.0152 |    0
2014-12-24 19:33:00-05 |    4 | 1419467580 | -77.9224 |   25.0444 |  35548.2 | 53.0802 |   0.01 |   0.45 | 0.0026 |  0.022 |    0
2014-12-24 19:32:59-05 |    4 | 1419467579 | -77.9224 |   25.0447 |  35548.4 | 53.0006 |  -0.01 |   0.48 | 0.0027 | 0.0238 |    0
2014-12-24 19:32:58-05 |    4 | 1419467578 | -77.9225 |   25.0449 |  35548.6 | 52.9205 |  -0.03 |   0.45 | 0.0026 | 0.0213 |    0
2014-12-24 19:32:57-05 |    4 | 1419467577 | -77.9225 |   25.0452 |  35548.7 | 52.8535 |  -0.04 |   0.45 | 0.0025 | 0.0214 |    0
2014-12-24 19:32:56-05 |    4 | 1419467576 | -77.9225 |   25.0454 |  35548.9 | 52.7926 |  -0.01 |   0.42 | 0.0025 | 0.0197 |    0
2014-12-24 19:32:55-05 |    4 | 1419467575 | -77.9226 |   25.0457 |  35549.1 | 52.7122 |  -0.04 |   0.45 | 0.0024 | 0.0193 |    0
2014-12-24 19:32:54-05 |    4 | 1419467574 | -77.9226 |   25.0459 |  35549.2 |  52.661 |  -0.03 |   0.46 | 0.0026 | 0.0205 |    0
2014-12-24 19:32:53-05 |    4 | 1419467573 | -77.9226 |   25.0462 |  35549.4 | 52.5957 |  -0.01 |   0.46 | 0.0025 | 0.0205 |    0
2014-12-24 19:32:52-05 |    4 | 1419467572 | -77.9227 |   25.0464 |  35549.5 | 52.5373 |  -0.06 |   0.44 | 0.0026 | 0.0234 |    0
2014-12-24 19:32:51-05 |    4 | 1419467571 | -77.9227 |   25.0467 |  35549.7 | -999.99 | -1e-37 | -1e-37 | 0.0026 | 9.9999 |    1
2014-12-24 19:28:04-05 |    4 | 1419467284 | -77.9319 |   25.1198 |  35537.5 | 74.4267 |  -0.15 |   0.51 | 0.0021 | 0.0162 |    0
2014-12-24 19:28:03-05 |    4 | 1419467283 |  -77.932 |     25.12 |  35537.8 | 74.5468 |  -0.13 |    0.5 |  0.002 | 0.0162 |    0
2014-12-24 19:28:02-05 |    4 | 1419467282 |  -77.932 |   25.1203 |  35538.1 | 74.6714 |  -0.17 |   0.51 | 0.0021 | 0.0162 |    0
2014-12-24 19:28:01-05 |    4 | 1419467281 |  -77.932 |   25.1205 |  35538.4 |  74.798 |  -0.19 |   0.52 | 0.0021 | 0.0161 |    0
2014-12-24 19:28:00-05 |    4 | 1419467280 | -77.9321 |   25.1208 |  35538.7 | 74.9059 |  -0.24 |    0.5 |  0.002 | 0.0162 |    0
2014-12-24 19:27:59-05 |    4 | 1419467279 | -77.9321 |    25.121 |    35539 | 75.0367 |  -0.25 |   0.53 | 0.0019 | 0.0162 |    0
2014-12-24 19:27:58-05 |    4 | 1419467278 | -77.9321 |   25.1213 |  35539.3 | 75.1543 |  -0.29 |   0.59 | 0.0019 | 0.0166 |    0
2014-12-24 19:27:57-05 |    4 | 1419467277 | -77.9322 |   25.1215 |  35539.6 | 75.2941 |  -0.26 |   0.52 | 0.0018 | 0.0157 |    0
2014-12-24 19:27:51-05 |    4 | 1419467271 | -77.9324 |    25.123 |  35541.5 | 76.0461 |  -0.45 |   0.49 | 0.0018 | 0.0159 |    0
2014-12-24 19:27:50-05 |    4 | 1419467270 | -77.9324 |   25.1232 |  35541.9 | 76.1743 |  -0.42 |   0.52 | 0.0017 | 0.0156 |    0
2014-12-24 19:25:37-05 |    4 | 1419467137 | -77.9362 |   25.1573 |  35537.6 | 95.7543 | -1e-37 |  -0.04 | 0.0021 | 0.0296 |    0
2014-12-24 19:25:36-05 |    4 | 1419467136 | -77.9362 |   25.1575 |  35536.9 | 95.9123 |   0.06 |  -0.01 | 0.0019 | 0.0258 |    0
2014-12-24 19:25:35-05 |    4 | 1419467135 | -77.9363 |   25.1578 |  35536.2 | 96.0358 |  -0.03 |  -0.03 |  0.002 | 0.0272 |    0
2014-12-24 19:25:34-05 |    4 | 1419467134 | -77.9363 |   25.1581 |  35535.5 | 96.1738 |   0.01 |  -0.01 | 0.0019 | 0.0283 |    0
2014-12-24 19:25:33-05 |    4 | 1419467133 | -77.9363 |   25.1583 |  35534.8 | 96.3151 |   0.02 |  -0.02 | 0.0018 | 0.0233 |    0
2014-12-24 19:25:32-05 |    4 | 1419467132 | -77.9364 |   25.1586 |    35534 | 96.4596 |   0.04 |   0.01 | 0.0019 | 0.0253 |    0
2014-12-24 19:25:31-05 |    4 | 1419467131 | -77.9364 |   25.1588 |  35533.3 | 96.5884 |   0.05 | -1e-37 | 0.0016 | 0.0222 |    0
2014-12-24 19:25:30-05 |    4 | 1419467130 | -77.9364 |   25.1591 |  35532.6 |  96.732 |   0.05 |   0.01 | 0.0017 | 0.0237 |    0
2014-12-24 19:25:29-05 |    4 | 1419467129 | -77.9364 |   25.1593 |  35531.8 | 96.8571 |   0.07 |   0.02 | 0.0016 | 0.0216 |    0
2014-12-24 19:25:28-05 |    4 | 1419467128 | -77.9365 |   25.1596 |  35531.1 | 96.9909 |   0.05 |   0.04 | 0.0018 | 0.0234 |    0
2014-12-24 19:24:35-05 |    4 | 1419467075 |  -77.938 |    25.173 |  35490.6 | 103.967 |   0.19 |   0.42 | 0.0019 | 0.0216 |    0
2014-12-24 19:24:34-05 |    4 | 1419467074 |  -77.938 |   25.1733 |    35490 | 104.114 |   0.26 |   0.39 | 0.0019 | 0.0204 |    0
2014-12-24 19:24:33-05 |    4 | 1419467073 |  -77.938 |   25.1735 |  35489.3 | 104.246 |   0.21 |    0.4 | 0.0019 | 0.0211 |    0
2014-12-24 19:24:32-05 |    4 | 1419467072 | -77.9381 |   25.1738 |  35488.7 | 104.389 |   0.22 |   0.35 | 0.0018 | 0.0197 |    0
2014-12-24 19:24:31-05 |    4 | 1419467071 | -77.9381 |    25.174 |  35488.1 | 104.592 |   0.37 |   0.51 | 0.0019 | 0.0192 |    0
2014-12-24 19:24:30-05 |    4 | 1419467070 | -77.9381 |   25.1743 |  35487.4 | 104.743 |   0.36 |   0.49 | 0.0019 |  0.018 |    0
2014-12-24 19:24:29-05 |    4 | 1419467069 | -77.9382 |   25.1745 |  35486.9 | 104.878 |   0.32 |   0.44 | 0.0019 | 0.0179 |    0
2014-12-24 19:24:28-05 |    4 | 1419467068 | -77.9382 |   25.1748 |  35486.3 | 105.015 |   0.28 |   0.48 | 0.0018 |  0.018 |    0
2014-12-24 19:24:27-05 |    4 | 1419467067 | -77.9382 |    25.175 |  35485.7 |  105.18 |   0.29 |   0.45 | 0.0018 | 0.0169 |    0
2014-12-24 19:24:26-05 |    4 | 1419467066 | -77.9382 |   25.1753 |  35485.1 |  105.34 |   0.33 |   0.43 | 0.0018 | 0.0161 |    0
2014-12-24 19:24:25-05 |    4 | 1419467065 | -77.9383 |   25.1755 |  35484.5 | 105.471 |   0.24 |   0.41 | 0.0018 | 0.0173 |    0
2014-12-24 19:24:24-05 |    4 | 1419467064 | -77.9383 |   25.1758 |    35484 | 105.619 |   0.26 |   0.38 | 0.0018 | 0.0164 |    0
2014-12-24 19:24:23-05 |    4 | 1419467063 | -77.9383 |    25.176 |  35483.4 | 105.775 |   0.22 |   0.35 | 0.0018 | 0.0145 |    0
2014-12-24 19:24:22-05 |    4 | 1419467062 | -77.9384 |   25.1763 |  35482.9 |   105.9 |   0.17 |   0.31 | 0.0018 |  0.015 |    0
2014-12-24 19:24:21-05 |    4 | 1419467061 | -77.9384 |   25.1765 |  35482.4 | 106.062 |   0.23 |    0.3 | 0.0017 | 0.0158 |    0
2014-12-24 19:19:54-05 |    4 | 1419466794 | -77.9467 |   25.2431 |  35537.4 | 135.108 |   0.26 |  -0.22 | 0.0016 | 0.0139 |    0
2014-12-24 19:19:53-05 |    4 | 1419466793 | -77.9467 |   25.2433 |  35537.5 | 135.232 |   0.22 |  -0.22 | 0.0015 | 0.0129 |    0
2014-12-24 19:19:52-05 |    4 | 1419466792 | -77.9468 |   25.2435 |  35537.7 | 135.376 |   0.28 |  -0.24 | 0.0016 | 0.0137 |    0
2014-12-24 19:19:51-05 |    4 | 1419466791 | -77.9468 |   25.2438 |  35537.8 | 135.522 |   0.31 |  -0.23 | 0.0016 | 0.0142 |    0
2014-12-24 19:19:50-05 |    4 | 1419466790 | -77.9468 |    25.244 |  35537.9 | 135.653 |    0.3 |  -0.23 | 0.0015 | 0.0128 |    0
2014-12-24 19:19:49-05 |    4 | 1419466789 | -77.9469 |   25.2443 |  35538.1 |  135.78 |   0.31 |  -0.28 | 0.0015 | 0.0109 |    0
2014-12-24 19:19:48-05 |    4 | 1419466788 | -77.9469 |   25.2445 |  35538.2 | 135.926 |   0.33 |  -0.27 | 0.0016 | 0.0129 |    0
2014-12-24 19:19:47-05 |    4 | 1419466787 | -77.9469 |   25.2448 |  35538.4 | 136.063 |   0.33 |  -0.26 | 0.0016 | 0.0127 |    0
2014-12-24 19:19:46-05 |    4 | 1419466786 |  -77.947 |    25.245 |  35538.5 | 136.193 |   0.34 |  -0.23 | 0.0016 | 0.0131 |    0
2014-12-24 19:19:45-05 |    4 | 1419466785 |  -77.947 |   25.2453 |  35538.7 | 136.334 |   0.36 |  -0.25 | 0.0016 | 0.0124 |    0
2014-12-24 19:17:22-05 |    4 | 1419466642 | -77.9518 |   25.2814 |  35564.4 | 159.387 |   0.44 |  -0.49 | 0.0014 | 0.0163 |    0
2014-12-24 19:17:21-05 |    4 | 1419466641 | -77.9519 |   25.2817 |  35564.4 | 159.545 |   0.44 |  -0.49 | 0.0013 | 0.0138 |    0
2014-12-24 19:17:20-05 |    4 | 1419466640 | -77.9519 |   25.2819 |  35564.5 | 159.678 |    0.4 |  -0.49 | 0.0013 |  0.014 |    0
2014-12-24 19:17:19-05 |    4 | 1419466639 | -77.9519 |   25.2822 |  35564.5 | 159.834 |   0.39 |  -0.49 | 0.0013 | 0.0145 |    0
2014-12-24 19:17:18-05 |    4 | 1419466638 |  -77.952 |   25.2824 |  35564.6 | 159.996 |   0.39 |  -0.47 | 0.0013 | 0.0149 |    0
2014-12-24 19:17:17-05 |    4 | 1419466637 |  -77.952 |   25.2827 |  35564.6 |  160.11 |   0.27 |   -0.6 | 0.0014 | 0.0149 |    0
2014-12-24 19:17:16-05 |    4 | 1419466636 |  -77.952 |    25.283 |  35564.7 | 160.242 |   0.25 |  -0.68 | 0.0014 | 0.0183 |    0
2014-12-24 19:17:15-05 |    4 | 1419466635 | -77.9521 |   25.2832 |  35564.8 | 160.366 |  -0.02 |  -1.15 | 0.0016 | 0.0125 |    0
2014-12-24 19:17:14-05 |    4 | 1419466634 | -77.9521 |   25.2835 |  35564.8 | 160.529 |   0.32 |  -0.48 | 0.0015 | 0.0171 |    0
2014-12-24 19:17:13-05 |    4 | 1419466633 | -77.9521 |   25.2837 |  35564.8 | 160.657 |    0.3 |  -0.52 | 0.0016 | 0.0187 |    0
2014-12-24 19:16:44-05 |    4 | 1419466604 | -77.9531 |   25.2914 |  35565.5 | 164.201 |   0.08 |  -0.46 | 0.0017 |  0.023 |    0
2014-12-24 19:16:43-05 |    4 | 1419466603 | -77.9531 |   25.2916 |  35565.5 | 164.323 |   0.13 |   -0.5 | 0.0017 |  0.023 |    0
2014-12-24 19:16:42-05 |    4 | 1419466602 | -77.9532 |   25.2919 |  35565.5 | 164.459 |   0.08 |  -0.51 | 0.0017 | 0.0247 |    0
2014-12-24 19:16:41-05 |    4 | 1419466601 | -77.9532 |   25.2922 |  35565.5 | 164.598 |   0.13 |  -0.47 | 0.0017 | 0.0245 |    0
2014-12-24 19:16:40-05 |    4 | 1419466600 | -77.9532 |   25.2924 |  35565.5 | 164.729 |   0.16 |  -0.53 | 0.0017 | 0.0252 |    0
2014-12-24 19:16:39-05 |    4 | 1419466599 | -77.9533 |   25.2927 |  35565.5 | 164.868 |   0.17 |  -0.52 | 0.0017 | 0.0219 |    0
2014-12-24 19:16:38-05 |    4 | 1419466598 | -77.9533 |   25.2929 |  35565.5 | 165.014 |   0.25 |  -0.57 | 0.0018 | 0.0212 |    0
2014-12-24 19:16:37-05 |    4 | 1419466597 | -77.9533 |   25.2932 |  35565.5 |  165.15 |   0.26 |   -0.6 | 0.0017 | 0.0255 |    0
2014-12-24 19:16:36-05 |    4 | 1419466596 | -77.9534 |   25.2935 |  35565.5 | 165.292 |    0.3 |  -0.63 | 0.0018 | 0.0215 |    0
2014-12-24 19:16:35-05 |    4 | 1419466595 | -77.9534 |   25.2937 |  35565.6 | 165.441 |   0.31 |  -0.61 | 0.0018 | 0.0198 |    0
2014-12-24 19:16:10-05 |    4 | 1419466570 | -77.9542 |   25.3004 |    35566 | 169.589 |    1.1 |  -0.52 | 0.0019 | 0.0153 |    0
2014-12-24 19:16:09-05 |    4 | 1419466569 | -77.9543 |   25.3007 |  35566.1 | 169.787 |   1.11 |  -0.49 |  0.002 | 0.0158 |    0
2014-12-24 19:16:08-05 |    4 | 1419466568 | -77.9543 |   25.3009 |  35566.1 | 169.997 |   1.12 |  -0.53 | 0.0021 | 0.0169 |    0
2014-12-24 19:16:07-05 |    4 | 1419466567 | -77.9543 |   25.3012 |  35566.1 | 170.197 |   1.11 |  -0.55 | 0.0021 | 0.0172 |    0
2014-12-24 19:16:06-05 |    4 | 1419466566 | -77.9544 |   25.3015 |  35566.2 | 170.396 |   1.11 |  -0.59 | 0.0021 | 0.0165 |    0
2014-12-24 19:16:05-05 |    4 | 1419466565 | -77.9544 |   25.3017 |  35566.2 | 170.596 |   1.05 |   -0.6 | 0.0022 | 0.0178 |    0
2014-12-24 19:16:04-05 |    4 | 1419466564 | -77.9544 |    25.302 |  35566.3 | 170.792 |   1.03 |  -0.62 | 0.0023 | 0.0184 |    0
2014-12-24 19:16:03-05 |    4 | 1419466563 | -77.9545 |   25.3023 |  35566.3 | 171.003 |   0.95 |  -0.64 | 0.0023 |  0.018 |    0
2014-12-24 19:16:02-05 |    4 | 1419466562 | -77.9545 |   25.3025 |  35566.4 | 171.231 |   0.91 |  -0.63 | 0.0023 |   0.02 |    0
2014-12-24 19:16:01-05 |    4 | 1419466561 | -77.9545 |   25.3028 |  35566.4 |  171.43 |   0.79 |  -0.64 | 0.0023 | 0.0203 |    0
2014-12-24 19:15:30-05 |    4 | 1419466530 | -77.9555 |   25.3112 |  35569.4 | 177.959 |   0.16 |  -0.41 | 0.0019 | 0.0183 |    0
2014-12-24 19:15:29-05 |    4 | 1419466529 | -77.9556 |   25.3115 |  35569.5 |  178.17 |   0.14 |  -0.35 | 0.0019 | 0.0207 |    0
2014-12-24 19:15:28-05 |    4 | 1419466528 | -77.9556 |   25.3117 |  35569.6 | 178.387 |   0.14 |  -0.33 | 0.0019 | 0.0193 |    0
2014-12-24 19:15:27-05 |    4 | 1419466527 | -77.9556 |    25.312 |  35569.8 | 178.598 |   0.17 |  -0.25 | 0.0019 | 0.0205 |    0
2014-12-24 19:15:26-05 |    4 | 1419466526 | -77.9557 |   25.3123 |  35569.9 | 178.809 |   0.21 |  -0.22 |  0.002 | 0.0194 |    0
2014-12-24 19:15:25-05 |    4 | 1419466525 | -77.9557 |   25.3125 |    35570 | 179.022 |    0.2 |  -0.15 | 0.0019 | 0.0183 |    0
2014-12-24 19:15:24-05 |    4 | 1419466524 | -77.9557 |   25.3128 |  35570.2 | 179.231 |   0.26 |  -0.12 | 0.0019 | 0.0168 |    0
2014-12-24 19:15:23-05 |    4 | 1419466523 | -77.9557 |   25.3131 |  35570.3 |  179.44 |   0.27 |  -0.11 | 0.0018 | 0.0164 |    0
2014-12-24 19:15:22-05 |    4 | 1419466522 | -77.9558 |   25.3134 |  35570.5 | 179.636 |   0.27 |  -0.09 | 0.0018 | 0.0172 |    0
2014-12-24 19:15:21-05 |    4 | 1419466521 | -77.9558 |   25.3136 |  35570.6 | 179.865 |   0.32 |  -0.01 | 0.0017 | 0.0155 |    0
2014-12-24 19:14:55-05 |    4 | 1419466495 | -77.9566 |   25.3208 |  35574.7 | 184.986 |   0.58 |   0.54 | 0.0013 | 0.0127 |    0
2014-12-24 19:14:54-05 |    4 | 1419466494 | -77.9567 |   25.3211 |  35574.8 | 185.172 |   0.56 |    0.6 | 0.0013 |  0.012 |    0
2014-12-24 19:14:53-05 |    4 | 1419466493 | -77.9567 |   25.3213 |    35575 | 185.375 |   0.55 |   0.65 | 0.0013 | 0.0136 |    0
2014-12-24 19:14:52-05 |    4 | 1419466492 | -77.9567 |   25.3216 |  35575.1 | 185.558 |   0.48 |   0.68 | 0.0014 |  0.013 |    0
2014-12-24 19:14:51-05 |    4 | 1419466491 | -77.9568 |   25.3219 |  35575.3 | 185.754 |   0.51 |   0.67 | 0.0014 | 0.0158 |    0
2014-12-24 19:14:50-05 |    4 | 1419466490 | -77.9568 |   25.3222 |  35575.4 | 185.923 |   0.48 |   0.69 | 0.0014 | 0.0132 |    0
2014-12-24 19:14:49-05 |    4 | 1419466489 | -77.9568 |   25.3224 |  35575.6 | 186.123 |   0.44 |    0.7 | 0.0014 | 0.0122 |    0
2014-12-24 19:14:48-05 |    4 | 1419466488 | -77.9569 |   25.3227 |  35575.8 | 186.312 |   0.41 |   0.73 | 0.0015 | 0.0142 |    0
2014-12-24 19:14:47-05 |    4 | 1419466487 | -77.9569 |    25.323 |  35575.9 |   186.5 |   0.38 |   0.72 | 0.0015 | 0.0134 |    0
2014-12-24 19:14:46-05 |    4 | 1419466486 | -77.9569 |   25.3233 |  35576.1 | 186.691 |   0.36 |   0.74 | 0.0015 | 0.0139 |    0
2014-12-24 19:10:26-05 |    4 | 1419466226 | -77.9661 |   25.3922 |  35567.5 | 239.054 |   0.21 |   0.18 | 0.0015 | 0.0154 |    0
2014-12-24 19:10:25-05 |    4 | 1419466225 | -77.9662 |   25.3924 |  35568.1 | 239.284 |   0.24 |   0.09 | 0.0015 | 0.0168 |    0
2014-12-24 19:10:24-05 |    4 | 1419466224 | -77.9662 |   25.3927 |  35568.6 | 239.512 |   0.16 |   0.03 | 0.0016 | 0.0184 |    0
2014-12-24 19:10:23-05 |    4 | 1419466223 | -77.9662 |    25.393 |  35569.2 | 239.745 |   0.15 |  -0.06 | 0.0015 | 0.0179 |    0
2014-12-24 19:10:22-05 |    4 | 1419466222 | -77.9663 |   25.3932 |  35569.7 | 239.982 |    0.1 |  -0.17 | 0.0016 | 0.0179 |    0
2014-12-24 19:10:21-05 |    4 | 1419466221 | -77.9663 |   25.3935 |  35570.3 | 240.208 |   0.11 |  -0.19 | 0.0016 | 0.0189 |    0
2014-12-24 19:10:20-05 |    4 | 1419466220 | -77.9664 |   25.3937 |  35570.9 |  240.45 |   0.18 |  -0.26 | 0.0015 | 0.0189 |    0
2014-12-24 19:10:19-05 |    4 | 1419466219 | -77.9664 |    25.394 |  35571.5 | 240.684 |   0.16 |  -0.33 | 0.0016 | 0.0199 |    0
2014-12-24 19:10:18-05 |    4 | 1419466218 | -77.9664 |   25.3942 |  35572.1 | 240.915 |   0.21 |  -0.39 | 0.0016 | 0.0199 |    0
2014-12-24 19:10:17-05 |    4 | 1419466217 | -77.9665 |   25.3945 |  35572.6 | 241.133 |   0.16 |  -0.46 | 0.0016 |   0.02 |    0
2014-12-24 19:08:02-05 |    4 | 1419466082 | -77.9714 |     25.43 |  35609.5 | 270.567 |  -0.06 |   0.04 |  0.002 | 0.0218 |    0
2014-12-24 19:08:01-05 |    4 | 1419466081 | -77.9714 |   25.4303 |  35609.2 | 270.807 |  -0.06 |   0.04 |  0.002 | 0.0218 |    0
2014-12-24 19:08:00-05 |    4 | 1419466080 | -77.9715 |   25.4305 |  35608.9 |     271 |   0.13 |  -0.03 | 0.0017 | 0.0185 |    0
2014-12-24 19:07:59-05 |    4 | 1419466079 | -77.9715 |   25.4308 |  35608.6 | 271.295 |  -0.09 |  -0.08 | 0.0018 | 0.0207 |    0
2014-12-24 19:07:58-05 |    4 | 1419466078 | -77.9715 |    25.431 |  35608.3 | 271.534 |  -0.12 |  -0.09 |  0.002 |  0.021 |    0
2014-12-24 19:07:57-05 |    4 | 1419466077 | -77.9716 |   25.4313 |    35608 | 271.794 |  -0.12 |  -0.15 | 0.0016 | 0.0197 |    0
2014-12-24 19:07:56-05 |    4 | 1419466076 | -77.9716 |   25.4316 |  35607.7 | 272.027 |  -0.13 |  -0.19 | 0.0017 | 0.0193 |    0
2014-12-24 19:07:55-05 |    4 | 1419466075 | -77.9716 |   25.4318 |  35607.3 |  272.29 |   -0.1 |  -0.24 | 0.0017 | 0.0209 |    0
2014-12-24 19:07:54-05 |    4 | 1419466074 | -77.9717 |   25.4321 |    35607 | 272.545 |  -0.15 |  -0.26 | 0.0015 | 0.0178 |    0
2014-12-24 19:07:53-05 |    4 | 1419466073 | -77.9717 |   25.4324 |  35606.7 | 272.797 |  -0.16 |  -0.29 | 0.0016 | 0.0199 |    0
2014-12-24 19:07:24-05 |    4 | 1419466044 | -77.9728 |   25.4399 |  35596.3 | 279.439 |  -0.04 |   0.22 | 0.0017 | 0.0144 |    0
2014-12-24 19:07:23-05 |    4 | 1419466043 | -77.9728 |   25.4401 |  35595.9 | 279.646 |   0.02 |   0.22 | 0.0016 | 0.0137 |    0
2014-12-24 19:07:22-05 |    4 | 1419466042 | -77.9729 |   25.4404 |  35595.5 | 279.852 |  -0.06 |   0.29 | 0.0016 | 0.0123 |    0
2014-12-24 19:07:21-05 |    4 | 1419466041 | -77.9729 |   25.4406 |  35595.2 | 280.039 |   0.14 |   0.21 | 0.0018 | 0.0174 |    0
2014-12-24 19:07:20-05 |    4 | 1419466040 | -77.9729 |   25.4409 |  35594.8 | 280.262 |    0.1 |   0.42 | 0.0017 | 0.0126 |    0
2014-12-24 19:07:19-05 |    4 | 1419466039 |  -77.973 |   25.4411 |  35594.5 | 280.482 |   0.13 |   0.28 | 0.0023 | 0.0207 |    0
2014-12-24 19:07:18-05 |    4 | 1419466038 |  -77.973 |   25.4414 |  35594.1 | 280.678 |   0.13 |   0.28 | 0.0017 | 0.0147 |    0
2014-12-24 19:07:17-05 |    4 | 1419466037 |  -77.973 |   25.4417 |  35593.7 | 280.869 |   0.11 |   0.25 | 0.0017 | 0.0151 |    0
2014-12-24 19:07:16-05 |    4 | 1419466036 | -77.9731 |   25.4419 |  35593.4 | 281.075 |   0.14 |   0.26 | 0.0017 | 0.0157 |    0
2014-12-24 19:07:15-05 |    4 | 1419466035 | -77.9731 |   25.4422 |    35593 | 281.267 |   0.16 |   0.27 | 0.0017 | 0.0148 |    0
2014-12-24 19:07:14-05 |    4 | 1419466034 | -77.9732 |   25.4424 |  35592.7 | 281.451 |   0.21 |   0.32 | 0.0017 | 0.0145 |    0
2014-12-24 19:07:13-05 |    4 | 1419466033 | -77.9732 |   25.4427 |  35592.3 | 281.653 |   0.16 |   0.27 | 0.0016 | 0.0148 |    0
2014-12-24 19:07:12-05 |    4 | 1419466032 | -77.9732 |   25.4429 |    35592 | 281.861 |   0.15 |    0.3 | 0.0017 | 0.0155 |    0
2014-12-24 19:07:11-05 |    4 | 1419466031 | -77.9733 |   25.4432 |  35591.6 | 282.043 |   0.19 |   0.28 | 0.0016 | 0.0142 |    0
2014-12-24 19:07:10-05 |    4 | 1419466030 | -77.9733 |   25.4434 |  35591.3 | 282.229 |    0.2 |   0.22 | 0.0017 | 0.0158 |    0
2014-12-24 19:06:50-05 |    4 | 1419466010 |  -77.974 |   25.4484 |  35585.5 | 286.099 |   0.37 |   0.06 | 0.0017 | 0.0151 |    0
2014-12-24 19:06:49-05 |    4 | 1419466009 | -77.9741 |   25.4487 |  35585.3 | 286.315 |   0.34 |   0.03 | 0.0017 | 0.0149 |    0
2014-12-24 19:06:48-05 |    4 | 1419466008 | -77.9741 |   25.4489 |  35585.1 | 286.512 |   0.34 |   0.03 | 0.0017 | 0.0155 |    0
2014-12-24 19:06:47-05 |    4 | 1419466007 | -77.9741 |   25.4492 |  35584.9 | 286.713 |   0.34 |   0.01 | 0.0016 | 0.0153 |    0
2014-12-24 19:06:46-05 |    4 | 1419466006 | -77.9742 |   25.4494 |  35584.6 | 286.922 |   0.32 |  -0.01 | 0.0015 | 0.0146 |    0
2014-12-24 19:06:45-05 |    4 | 1419466005 | -77.9742 |   25.4497 |  35584.4 | 287.133 |   0.28 |  -0.05 | 0.0015 | 0.0157 |    0
2014-12-24 19:06:44-05 |    4 | 1419466004 | -77.9743 |   25.4499 |  35584.2 | 287.335 |   0.28 | -1e-37 | 0.0015 | 0.0145 |    0
2014-12-24 19:06:43-05 |    4 | 1419466003 | -77.9743 |   25.4502 |  35584.1 | 287.545 |   0.25 | -1e-37 | 0.0015 | 0.0166 |    0
2014-12-24 19:06:42-05 |    4 | 1419466002 | -77.9743 |   25.4504 |  35583.9 | 287.759 |   0.22 | -1e-37 | 0.0014 | 0.0148 |    0
2014-12-24 19:06:41-05 |    4 | 1419466001 | -77.9744 |   25.4507 |  35583.7 | 287.976 |   0.15 |  -0.05 | 0.0016 | 0.0162 |    0
2014-12-24 19:05:50-05 |    4 | 1419465950 | -77.9762 |   25.4631 |  35585.5 | 299.179 |   0.08 |   0.16 | 0.0015 | 0.0108 |    0
2014-12-24 19:05:49-05 |    4 | 1419465949 | -77.9762 |   25.4634 |  35585.8 | 299.378 |   0.19 |   0.14 | 0.0016 | 0.0109 |    0
2014-12-24 19:05:48-05 |    4 | 1419465948 | -77.9763 |   25.4636 |    35586 | 299.579 |   0.19 |   0.15 | 0.0017 | 0.0123 |    0
2014-12-24 19:05:47-05 |    4 | 1419465947 | -77.9763 |   25.4638 |  35586.3 | 299.757 |    0.2 |   0.16 | 0.0017 | 0.0143 |    0
2014-12-24 19:05:46-05 |    4 | 1419465946 | -77.9763 |   25.4641 |  35586.5 | 299.939 |    0.3 |   0.14 | 0.0017 | 0.0137 |    0
2014-12-24 19:05:45-05 |    4 | 1419465945 | -77.9764 |   25.4643 |  35586.8 | 300.126 |   0.35 |   0.15 |  0.002 | 0.0139 |    0
2014-12-24 19:05:44-05 |    4 | 1419465944 | -77.9764 |   25.4646 |  35587.1 | 300.318 |   0.37 |   0.13 |  0.002 |  0.015 |    0
2014-12-24 19:05:43-05 |    4 | 1419465943 | -77.9764 |   25.4648 |  35587.4 | 300.494 |   0.34 |   0.14 |  0.002 | 0.0159 |    0
2014-12-24 19:05:42-05 |    4 | 1419465942 | -77.9765 |   25.4651 |  35587.7 | 300.645 |    0.4 |    0.1 | 0.0021 | 0.0148 |    0
2014-12-24 19:05:41-05 |    4 | 1419465941 | -77.9765 |   25.4653 |    35588 | 300.841 |   0.42 |   0.09 |  0.002 | 0.0161 |    0
2014-12-24 19:05:02-05 |    4 | 1419465902 | -77.9779 |   25.4748 |  35602.7 | 307.251 |   0.05 |  -0.27 | 0.0019 | 0.0221 |    0
2014-12-24 19:05:01-05 |    4 | 1419465901 | -77.9779 |    25.475 |  35603.1 | 307.443 |   0.05 |   -0.3 | 0.0019 |  0.021 |    0
2014-12-24 19:05:00-05 |    4 | 1419465900 | -77.9779 |   25.4753 |  35603.5 | 307.615 |   0.08 |  -0.28 | 0.0018 |  0.022 |    0
2014-12-24 19:04:59-05 |    4 | 1419465899 |  -77.978 |   25.4755 |  35603.9 | 307.785 |   0.11 |  -0.25 | 0.0018 | 0.0215 |    0
2014-12-24 19:04:58-05 |    4 | 1419465898 |  -77.978 |   25.4757 |  35604.3 | 307.959 |   0.12 |  -0.22 | 0.0018 | 0.0207 |    0
2014-12-24 19:04:57-05 |    4 | 1419465897 |  -77.978 |    25.476 |  35604.8 | 308.157 |   0.14 |  -0.23 | 0.0019 | 0.0212 |    0
2014-12-24 19:04:56-05 |    4 | 1419465896 | -77.9781 |   25.4762 |  35605.1 | 308.345 |   0.16 |  -0.24 | 0.0018 | 0.0196 |    0
2014-12-24 19:04:55-05 |    4 | 1419465895 | -77.9781 |   25.4765 |  35605.6 | 308.548 |   0.13 |  -0.25 | 0.0018 | 0.0185 |    0
2014-12-24 19:04:54-05 |    4 | 1419465894 | -77.9781 |   25.4767 |    35606 | 308.728 |   0.17 |  -0.21 | 0.0017 | 0.0181 |    0
2014-12-24 19:04:53-05 |    4 | 1419465893 | -77.9782 |    25.477 |  35606.4 | 308.943 |   0.16 |  -0.27 | 0.0018 | 0.0184 |    0
2014-12-24 19:04:17-05 |    4 | 1419465857 | -77.9794 |   25.4858 |  35617.7 | 317.414 |    0.2 |   -0.3 |  0.002 | 0.0184 |    0
2014-12-24 19:04:16-05 |    4 | 1419465856 | -77.9794 |   25.4861 |  35617.9 | 317.659 |    0.2 |  -0.33 |  0.002 |  0.018 |    0
2014-12-24 19:04:15-05 |    4 | 1419465855 | -77.9794 |   25.4863 |  35618.1 | 317.884 |   0.19 |  -0.25 | 0.0021 | 0.0171 |    0
2014-12-24 19:04:14-05 |    4 | 1419465854 | -77.9795 |   25.4866 |  35618.3 | 318.091 |   0.08 |  -0.15 | 0.0019 | 0.0154 |    0
2014-12-24 19:04:13-05 |    4 | 1419465853 | -77.9795 |   25.4868 |  35618.4 | 318.378 |   0.07 |   -0.4 |  0.002 | 0.0144 |    0
2014-12-24 19:04:12-05 |    4 | 1419465852 | -77.9795 |   25.4871 |  35618.6 | 318.609 |   0.04 |  -0.38 | 0.0019 | 0.0135 |    0
2014-12-24 19:04:11-05 |    4 | 1419465851 | -77.9796 |   25.4873 |  35618.8 | 318.809 |  -0.04 |  -0.21 | 0.0018 | 0.0112 |    0
2014-12-24 19:04:10-05 |    4 | 1419465850 | -77.9796 |   25.4876 |  35618.9 | 319.056 |  -0.05 |  -0.37 | 0.0019 | 0.0118 |    0
2014-12-24 19:04:09-05 |    4 | 1419465849 | -77.9796 |   25.4878 |  35619.1 | 319.282 |  -0.06 |  -0.34 | 0.0016 | 0.0095 |    0
2014-12-24 19:04:08-05 |    4 | 1419465848 | -77.9797 |   25.4881 |  35619.2 | 319.524 |  -0.07 |  -0.38 | 0.0017 | 0.0101 |    0
2014-12-24 19:00:20-05 |    4 | 1419465620 | -77.9872 |   25.5448 |  35581.1 |  1.5265 |  -0.76 |   0.64 | 0.0021 | 0.0173 |    0
2014-12-24 19:00:19-05 |    4 | 1419465619 | -77.9873 |    25.545 |  35581.4 |  1.6894 |  -0.75 |   0.68 | 0.0022 | 0.0177 |    0
2014-12-24 19:00:18-05 |    4 | 1419465618 | -77.9873 |   25.5453 |  35581.7 |  1.8654 |  -0.75 |   0.68 | 0.0023 | 0.0179 |    0
2014-12-24 19:00:17-05 |    4 | 1419465617 | -77.9873 |   25.5455 |    35582 |  2.0344 |  -0.67 |   0.67 | 0.0021 | 0.0185 |    0
2014-12-24 19:00:16-05 |    4 | 1419465616 | -77.9874 |   25.5458 |  35582.3 |  2.2034 |  -0.68 |   0.65 | 0.0023 | 0.0198 |    0
2014-12-24 19:00:15-05 |    4 | 1419465615 | -77.9874 |   25.5461 |  35582.6 |  2.3527 |  -0.68 |   0.69 | 0.0021 | 0.0172 |    0
2014-12-24 19:00:14-05 |    4 | 1419465614 | -77.9874 |   25.5463 |  35582.9 |   2.522 |  -0.65 |   0.68 | 0.0021 | 0.0192 |    0
2014-12-24 19:00:13-05 |    4 | 1419465613 | -77.9875 |   25.5466 |  35583.2 |  2.6763 |  -0.68 |   0.67 | 0.0021 | 0.0201 |    0
2014-12-24 19:00:12-05 |    4 | 1419465612 | -77.9875 |   25.5468 |  35583.5 |   2.832 |  -0.67 |   0.67 | 0.0022 | 0.0205 |    0
2014-12-24 19:00:11-05 |    4 | 1419465611 | -77.9875 |   25.5471 |  35583.9 |  2.9867 |  -0.65 |   0.68 | 0.0022 | 0.0213 |    0
2014-12-24 18:57:58-05 |    4 | 1419465478 | -77.9916 |   25.5822 |  35630.4 | 20.3958 |  -1.15 |   0.77 | 0.0016 | 0.0138 |    0
2014-12-24 18:57:57-05 |    4 | 1419465477 | -77.9917 |   25.5825 |  35630.5 | 20.5241 |  -1.16 |   0.81 | 0.0015 | 0.0135 |    0
2014-12-24 18:57:56-05 |    4 | 1419465476 | -77.9917 |   25.5828 |  35630.7 |  20.647 |  -1.21 |    0.8 | 0.0015 | 0.0122 |    0
2014-12-24 18:57:55-05 |    4 | 1419465475 | -77.9917 |    25.583 |  35630.9 | 20.7806 |  -1.16 |   0.75 | 0.0015 | 0.0128 |    0
2014-12-24 18:57:54-05 |    4 | 1419465474 | -77.9917 |   25.5833 |  35631.1 | 20.8953 |  -1.13 |   0.75 | 0.0015 | 0.0119 |    0
2014-12-24 18:57:53-05 |    4 | 1419465473 | -77.9918 |   25.5836 |  35631.2 | 21.0159 |  -1.13 |   0.73 | 0.0014 | 0.0119 |    0
2014-12-24 18:57:52-05 |    4 | 1419465472 | -77.9918 |   25.5839 |  35631.4 |  21.136 |  -1.11 |    0.7 | 0.0014 | 0.0116 |    0
2014-12-24 18:57:51-05 |    4 | 1419465471 | -77.9918 |   25.5841 |  35631.5 | 21.2573 |  -1.12 |    0.7 | 0.0015 | 0.0117 |    0
2014-12-24 18:57:50-05 |    4 | 1419465470 | -77.9919 |   25.5844 |  35631.7 | 21.3571 |  -1.13 |   0.65 | 0.0014 | 0.0111 |    0
2014-12-24 18:57:49-05 |    4 | 1419465469 | -77.9919 |   25.5847 |  35631.8 | 21.4694 |  -1.08 |   0.61 | 0.0016 | 0.0126 |    0
2014-12-24 18:57:23-05 |    4 | 1419465443 | -77.9926 |   25.5919 |  35634.3 | 23.8367 |  -0.83 |   0.21 | 0.0021 |  0.017 |    0
2014-12-24 18:57:22-05 |    4 | 1419465442 | -77.9927 |   25.5921 |  35634.3 | 23.9282 |  -0.84 |   0.13 |  0.002 | 0.0161 |    0
2014-12-24 18:57:21-05 |    4 | 1419465441 | -77.9927 |   25.5924 |  35634.4 | 23.9896 |  -0.85 |   0.15 | 0.0021 | 0.0168 |    0
2014-12-24 18:57:20-05 |    4 | 1419465440 | -77.9927 |   25.5927 |  35634.4 | 24.0844 |  -0.82 |   0.14 |  0.002 | 0.0168 |    0
2014-12-24 18:57:19-05 |    4 | 1419465439 | -77.9927 |    25.593 |  35634.4 | 24.1566 |  -0.84 |   0.17 | 0.0021 | 0.0173 |    0
2014-12-24 18:57:18-05 |    4 | 1419465438 | -77.9928 |   25.5932 |  35634.5 |  24.244 |  -0.83 |   0.19 | 0.0022 | 0.0186 |    0
2014-12-24 18:57:17-05 |    4 | 1419465437 | -77.9928 |   25.5935 |  35634.5 | 24.3273 |  -0.88 |   0.17 | 0.0021 | 0.0182 |    0
2014-12-24 18:57:16-05 |    4 | 1419465436 | -77.9928 |   25.5938 |  35634.5 | 24.4269 |  -0.84 |    0.2 | 0.0022 | 0.0169 |    0
2014-12-24 18:57:15-05 |    4 | 1419465435 | -77.9929 |   25.5941 |  35634.5 |  24.514 |  -0.82 |   0.16 | 0.0022 | 0.0174 |    0
2014-12-24 18:57:14-05 |    4 | 1419465434 | -77.9929 |   25.5943 |  35634.6 |  24.623 |  -0.79 |   0.08 | 0.0022 | 0.0177 |    0
2014-12-24 18:56:52-05 |    4 | 1419465412 | -77.9935 |   25.6004 |  35634.2 | 27.4823 |  -0.88 |   0.25 | 0.0021 | 0.0165 |    0
2014-12-24 18:56:51-05 |    4 | 1419465411 | -77.9936 |   25.6007 |  35634.2 | 27.6406 |  -0.92 |   0.22 | 0.0021 | 0.0184 |    0
2014-12-24 18:56:50-05 |    4 | 1419465410 | -77.9936 |    25.601 |  35634.1 | 27.8167 |  -0.85 |   0.24 |  0.002 | 0.0171 |    0
2014-12-24 18:56:49-05 |    4 | 1419465409 | -77.9936 |   25.6012 |  35634.1 | 27.9919 |  -0.82 |   0.19 | 0.0019 | 0.0161 |    0
2014-12-24 18:56:48-05 |    4 | 1419465408 | -77.9936 |   25.6015 |    35634 | 28.1567 |  -0.75 |   0.24 | 0.0019 | 0.0184 |    0
2014-12-24 18:56:47-05 |    4 | 1419465407 | -77.9937 |   25.6018 |    35634 | 28.3303 |  -0.73 |   0.21 | 0.0019 | 0.0187 |    0
2014-12-24 18:56:46-05 |    4 | 1419465406 | -77.9937 |   25.6021 |  35633.9 | 28.5008 |  -0.73 |   0.23 | 0.0019 | 0.0179 |    0
2014-12-24 18:56:45-05 |    4 | 1419465405 | -77.9937 |   25.6023 |  35633.9 | 28.6701 |  -0.67 |   0.27 | 0.0018 | 0.0173 |    0
2014-12-24 18:56:44-05 |    4 | 1419465404 | -77.9938 |   25.6026 |  35633.8 | 28.8595 |  -0.61 |   0.26 | 0.0018 | 0.0187 |    0
2014-12-24 18:56:43-05 |    4 | 1419465403 | -77.9938 |   25.6029 |  35633.7 | 29.0541 |  -0.48 |   0.24 | 0.0017 | 0.0173 |    0
2014-12-24 18:56:21-05 |    4 | 1419465381 | -77.9944 |   25.6089 |  35632.2 | 33.1651 |  -0.73 |   1.02 | 0.0016 | 0.0192 |    0
2014-12-24 18:56:20-05 |    4 | 1419465380 | -77.9945 |   25.6091 |  35632.2 | 33.3636 |  -0.74 |   0.94 | 0.0016 | 0.0186 |    0
2014-12-24 18:56:19-05 |    4 | 1419465379 | -77.9945 |   25.6094 |  35632.1 | 33.5412 |  -0.76 |    0.9 | 0.0016 | 0.0178 |    0
2014-12-24 18:56:18-05 |    4 | 1419465378 | -77.9945 |   25.6097 |    35632 | 33.7198 |  -0.72 |   0.88 | 0.0016 | 0.0175 |    0
2014-12-24 18:56:17-05 |    4 | 1419465377 | -77.9946 |     25.61 |    35632 | 33.9009 |  -0.73 |   0.83 | 0.0016 | 0.0175 |    0
2014-12-24 18:56:16-05 |    4 | 1419465376 | -77.9946 |   25.6102 |  35631.9 | 34.0885 |  -0.78 |   0.71 | 0.0016 | 0.0153 |    0
2014-12-24 18:56:15-05 |    4 | 1419465375 | -77.9946 |   25.6105 |  35631.8 | 34.2637 |  -0.72 |   0.69 | 0.0015 | 0.0169 |    0
2014-12-24 18:56:14-05 |    4 | 1419465374 | -77.9947 |   25.6108 |  35631.8 | 34.4173 |  -0.71 |   0.74 | 0.0014 | 0.0097 |    0
2014-12-24 18:56:13-05 |    4 | 1419465373 | -77.9947 |    25.611 |  35631.7 | 34.6013 |  -0.71 |   0.57 | 0.0015 | 0.0161 |    0
2014-12-24 18:56:12-05 |    4 | 1419465372 | -77.9947 |   25.6113 |  35631.6 | 34.7835 |   -0.7 |   0.51 | 0.0014 | 0.0143 |    0
2014-12-24 18:55:37-05 |    4 | 1419465337 | -77.9958 |   25.6206 |  35629.9 | 38.2922 |   -0.4 |   0.18 | 0.0015 | 0.0176 |    0
2014-12-24 18:55:36-05 |    4 | 1419465336 | -77.9958 |   25.6209 |  35629.9 | 38.3412 |  -0.36 |   0.18 | 0.0015 | 0.0172 |    0
2014-12-24 18:55:35-05 |    4 | 1419465335 | -77.9958 |   25.6212 |  35629.8 | 38.4008 |  -0.36 |   0.16 | 0.0015 | 0.0172 |    0
2014-12-24 18:55:34-05 |    4 | 1419465334 | -77.9959 |   25.6214 |  35629.8 | 38.4456 |  -0.33 |   0.17 | 0.0016 | 0.0175 |    0
2014-12-24 18:55:33-05 |    4 | 1419465333 | -77.9959 |   25.6217 |  35629.8 | 38.5007 |  -0.32 |   0.14 | 0.0016 | 0.0172 |    0
(305 rows)

